{
  "charities": [
    {
      "name": "From the Heart Productions Inc",
      "type": "Community Service",
      "hours": "Monday: 8AM-5PM, Tuesday: 8AM-5PM, Wednesday: 8:30AM-5PM, Thursday: 8AM-5PM, Friday: 8AM-5PM, Saturday: 8AM-5PM, Sunday: CLOSED",
      "money": "nonprofit - helps film makers get film funding",
      "location": "1455 Mandalay Beach Rd, Oxnard, CA 93035",
      "website": "https://fromtheheartproductions.com/",
      "phone": "(805) 984-0098",
      "Rating": "5"
    },
    {
      "name": "Habitat for Humanity of Ventura County",
      "type": "Volunteer",
      "hours": "Monday: 9AM-5PM, Tuesday: 9AM-5PM, Wednesday: 9AM-5PM, Thursday: 9AM-5PM, Friday: 9AM-5PM, Saturday: 9AM-5PM, Sunday: 9AM-5PM",
      "money": "nonprofit - homeless and housing, development, construction, and religion",
      "location": "1850 Eastman Ave, Oxnard, CA 93030",
      "website": "https://habitatventura.org/",
      "phone": "(805) 485-6065",
      "Rating": "4.2"
    },
    {
      "name": "ACTION VC",
      "type": "Volunteer",
      "hours": "Monday: 9AM-4PM, Tuesday: 9AM-4PM, Wednesday: 9AM-4PM, Thursday: 9AM-4PM, Friday: 9AM-2PM, Saturday: CLOSED, Sunday: CLOSED",
      "money": "nonproft - local communities, churches and businesses",
      "location": "4001 Mission Oaks Blvd suite s, Camarillo, CA 93012",
      "website": "https://www.actionvc.org/",
      "phone": "(805) 987-0300",
      "Rating": "5"
    },
    {
      "name": "Tailwagger Foundation of America",
      "type": "Animals",
      "hours": "NA",
      "money": "nonprofit - sick and injured animals, rescue shelters",
      "location": "1929 N Bronson Ave, Los Angeles, CA 90068",
      "website": "http://thetailwaggersfoundation.org/",
      "phone": "(323)464-5559",
      "Rating": "5"
    },
    {
      "name": "Food Share of Ventura County",
      "type": "Foodbanks",
      "hours": "Monday: 8AM-4PM, Tuesday: 8AM-4PM, Wednesday: 8:30AM-4PM, Thursday: 8AM-4PM, Friday: 8AM-4PM, Saturday: CLOSED, Sunday: CLOSED",
      "money": "provide food for Ventura County residents",
      "location": "4156 Southbank Rd, Oxnard, CA 93036",
      "website": "https://foodshare.com/",
      "phone": "(805)983-7100",
      "Rating": "4.4"
    },
    {
      "name": "Laubach Literacy of Venutra County",
      "type": "Educational",
      "hours": null,
      "money": "nonprofit - local communities, education",
      "location": "1500 Palma Dr #250, Ventura, CA 93003",
      "website": "http://www.laubachventura.org/",
      "phone": "(805) 385-9584",
      "Rating": "5"
    },
    {
      "name": "Ventura College Foundation",
      "type": "Educational",
      "hours": null,
      "money": "nonprofit - educational",
      "location": null,
      "website": "https://venturacollegefoundation.org/",
      "phone": "(805) 987-0300",
      "Rating": null
    },
    {
      "name": "Ventura Land Trust",
      "type": "Enviornmental",
      "hours": "Monday: 8AM-5PM, Tuesday: 8AM-5PM, Wednesday: 8AM-5PM, Thursday: 8AM-5PM, Friday: 8AM-5PM, Saturday: CLOSED, Sunday: CLOSED",
      "money": "nonprofit - enviornmental orginization",
      "location": "3451 Foothill Rd #201, Ventura, CA 93003",
      "website": "https://www.venturalandtrust.org/",
      "phone": "(805) 643-8044",
      "Rating": "5"
    },
    {
      "name": "Autism Society Ventura County",
      "type": "Health",
      "hours": null,
      "money": "nonprofit ",
      "location": "80 E Hillcrest Dr STE 110, Thousand Oaks, CA 91360",
      "website": null,
      "phone": "(805) 496-1632",
      "Rating": null
    },
    {
      "name": "Casa Pacifica",
      "type": "Children and Youth",
      "hours": null,
      "money": "nonprofit ",
      "location": "1722 South Lewis Rd.Camarillo, CA 93012",
      "website": "https://www.casapacifica.org/",
      "phone": "(805) 366-4040",
      "Rating": null
    },
    {
      "name": "Ventura County Military Collaborative",
      "type": "Veterans",
      "hours": null,
      "money": "nonprofit ",
      "location": "4001 Mission Oaks Blvd suite s, Camarillo, CA 93012",
      "website": "http://www.vcmilc.org/",
      "phone": "(805) 987-0300",
      "Rating": "5"
    }
  ]
}
